{
  "construction_sides": [
    {
      "gid": "10118",
      "address": "г.Молодечно, угол ул.Виленская - ул.Толстого (Центральная площадь)",
      "name": "В",
      "lon": 26.839621,
      "lat": 54.307023,
      "construction_format": "Билборды",
      "display_type": "Статика",
      "lighting": null,
      "size": null,
      "material": null
    },
    {
      "gid": "11648",
      "address": "ул. Молодёжная(микр. Андреевщина)",
      "name": "А",
      "lon": 30.454163,
      "lat": 54.558714,
      "construction_format": "Билборды",
      "display_type": "Статика",
      "lighting": null,
      "size": null,
      "material": null
    },
    {
      "gid": "11648",
      "address": "ул. Молодёжная(микр. Андреевщина)",
      "name": "В",
      "lon": 30.454163,
      "lat": 54.558714,
      "construction_format": "Билборды",
      "display_type": "Статика",
      "lighting": null,
      "size": null,
      "material": null
    },
    {
      "gid": "10127",
      "address": "г.Молодечно, ул.В.Гостинец, возле остановочного пункта ТЦ \"Модуль\"",
      "name": "А",
      "lon": 26.865029,
      "lat": 54.299664,
      "construction_format": "Билборды",
      "display_type": "Статика",
      "lighting": null,
      "size": null,
      "material": null
    },
    {
      "gid": "11657",
      "address": "ул.Советская, 29Б",
      "name": "А",
      "lon": 30.409241,
      "lat": 54.501213,
      "construction_format": "Билборды",
      "display_type": "Статика",
      "lighting": null,
      "size": null,
      "material": null
    },
    {
      "gid": "10128",
      "address": "г.Молодечно, угол ул.В.Гостинец - ул.Мира",
      "name": "В",
      "lon": 26.858501,
      "lat": 54.301042,
      "construction_format": "Билборды",
      "display_type": "Статика",
      "lighting": null,
      "size": null,
      "material": null
    },
    {
      "gid": "11658",
      "address": "ул.Чернышевского (дискаунтер «Евроопт»)",
      "name": "А",
      "lon": 30.432398,
      "lat": 54.524631,
      "construction_format": "Билборды",
      "display_type": "Статика",
      "lighting": null,
      "size": null,
      "material": null
    },
    {
      "gid": "11658",
      "address": "ул.Чернышевского (дискаунтер «Евроопт»)",
      "name": "В",
      "lon": 30.432398,
      "lat": 54.524631,
      "construction_format": "Билборды",
      "display_type": "Статика",
      "lighting": null,
      "size": null,
      "material": null
    },
    {
      "gid": "10129",
      "address": "г.Молодечно, Проезд к вещевому рынку",
      "name": "А",
      "lon": 26.861985,
      "lat": 54.299595,
      "construction_format": "Билборды",
      "display_type": "Статика",
      "lighting": null,
      "size": null,
      "material": null
    },
    {
      "gid": "11659",
      "address": "ул.Мира(пешеходный мост)",
      "name": "А",
      "lon": 30.414917,
      "lat": 54.51299,
      "construction_format": "Мосты",
      "display_type": "Статика",
      "lighting": null,
      "size": null,
      "material": null
    },
    {
      "gid": "11659",
      "address": "ул.Мира(пешеходный мост)",
      "name": "В",
      "lon": 30.414917,
      "lat": 54.51299,
      "construction_format": "Мосты",
      "display_type": "Статика",
      "lighting": null,
      "size": null,
      "material": null
    },
    {
      "gid": "10130",
      "address": "г.Молодечно, ул.Ф.Скорины, 19",
      "name": "В",
      "lon": 26.848789,
      "lat": 54.299246,
      "construction_format": "Билборды",
      "display_type": "Статика",
      "lighting": null,
      "size": null,
      "material": null
    },
    {
      "gid": "11660",
      "address": "ул.Ленина/ул.Пионерская(Городской Центр культуры)",
      "name": "А",
      "lon": 30.43045,
      "lat": 54.511753,
      "construction_format": "Билборды",
      "display_type": "Статика",
      "lighting": null,
      "size": null,
      "material": null
    },
    {
      "gid": "10131",
      "address": "г.Молодечно, ул.Либаво-Роменская, въезд на ЖД-вокзал",
      "name": "А",
      "lon": 26.840032,
      "lat": 54.31522,
      "construction_format": "Билборды",
      "display_type": "Статика",
      "lighting": null,
      "size": null,
      "material": null
    },
    {
      "gid": "11661",
      "address": "Трасса М1 (Е30) – М8 (Е95)",
      "name": "А",
      "lon": 30.439434,
      "lat": 54.640811,
      "construction_format": "Билборды",
      "display_type": "Статика",
      "lighting": null,
      "size": null,
      "material": null
    },
    {
      "gid": "10132",
      "address": "г.Молодечно, угол ул.Виленская - ул.Волынца (возле фабрики \"Березка\")",
      "name": "А",
      "lon": 26.845086,
      "lat": 54.31056,
      "construction_format": "Билборды",
      "display_type": "Статика",
      "lighting": null,
      "size": null,
      "material": null
    },
    {
      "gid": "10132",
      "address": "г.Молодечно, угол ул.Виленская - ул.Волынца (возле фабрики \"Березка\")",
      "name": "В",
      "lon": 26.845086,
      "lat": 54.31056,
      "construction_format": "Билборды",
      "display_type": "Статика",
      "lighting": null,
      "size": null,
      "material": null
    },
    {
      "gid": "11662",
      "address": "А   Трасса М8 (Е95). Пос. Высокое",
      "name": "А",
      "lon": 30.439348,
      "lat": 54.6409,
      "construction_format": "Билборды",
      "display_type": "Статика",
      "lighting": null,
      "size": null,
      "material": null
    },
    {
      "gid": "11662",
      "address": "А   Трасса М8 (Е95). Пос. Высокое",
      "name": "В",
      "lon": 30.439348,
      "lat": 54.6409,
      "construction_format": "Билборды",
      "display_type": "Статика",
      "lighting": null,
      "size": null,
      "material": null
    },
    {
      "gid": "10133",
      "address": "г.Молодечно, ул.Дублер (возле гипермаркета \"Евроопт\", фабрики Художественных изделий, \"Белинвестбанк\")",
      "name": "А",
      "lon": 26.83523361938332,
      "lat": 54.30880070040544,
      "construction_format": "Билборды",
      "display_type": "Статика",
      "lighting": null,
      "size": null,
      "material": null
    },
    {
      "gid": "10133",
      "address": "г.Молодечно, ул.Дублер (возле гипермаркета \"Евроопт\", фабрики Художественных изделий, \"Белинвестбанк\")",
      "name": "В",
      "lon": 26.83523361938332,
      "lat": 54.30880070040544,
      "construction_format": "Билборды",
      "display_type": "Статика",
      "lighting": null,
      "size": null,
      "material": null
    },
    {
      "gid": "11663",
      "address": ". ул.60 лет БССР(м-н «Алми»)",
      "name": "А",
      "lon": 30.414978,
      "lat": 54.489097,
      "construction_format": "Билборды",
      "display_type": "Статика",
      "lighting": null,
      "size": null,
      "material": null
    },
    {
      "gid": "10134",
      "address": "г.Молодечно, ул.В.Гостинец, возле магазина \"Родны кут\" (микрорайон Восточный)",
      "name": "А",
      "lon": 26.887949753100628,
      "lat": 54.295489504019145,
      "construction_format": "Билборды",
      "display_type": "Статика",
      "lighting": null,
      "size": null,
      "material": null
    },
    {
      "gid": "11664",
      "address": ". Трасса М8. Антоновка",
      "name": "А",
      "lon": 30.444221,
      "lat": 54.400417,
      "construction_format": "Билборды",
      "display_type": "Статика",
      "lighting": null,
      "size": null,
      "material": null
    },
    {
      "gid": "10135",
      "address": "г.Молодечно, ул.Космонавтов, возле остановочного пункта Магнит",
      "name": "А",
      "lon": 26.85279186715762,
      "lat": 54.30470923285136,
      "construction_format": "Билборды",
      "display_type": "Статика",
      "lighting": null,
      "size": null,
      "material": null
    },
    {
      "gid": "11665",
      "address": "Автодорога Р-15Орша -Лепель",
      "name": "А",
      "lon": 30.349281,
      "lat": 54.510869,
      "construction_format": "Билборды",
      "display_type": "Статика",
      "lighting": null,
      "size": null,
      "material": null
    },
    {
      "gid": "10136",
      "address": "г.Молодечно, ул.Виленская, на съезде с путепровода",
      "name": "А",
      "lon": 26.851245795863765,
      "lat": 54.31255850037796,
      "construction_format": "Билборды",
      "display_type": "Статика",
      "lighting": null,
      "size": null,
      "material": null
    },
    {
      "gid": "10136",
      "address": "г.Молодечно, ул.Виленская, на съезде с путепровода",
      "name": "В",
      "lon": 26.851245795863765,
      "lat": 54.31255850037796,
      "construction_format": "Билборды",
      "display_type": "Статика",
      "lighting": null,
      "size": null,
      "material": null
    },
    {
      "gid": "10119",
      "address": "г.Молодечно, угол ул.В.Гостинец-ул.Ф.Скорины",
      "name": "А",
      "lon": 26.850127,
      "lat": 54.306215,
      "construction_format": "Билборды",
      "display_type": "Статика",
      "lighting": null,
      "size": null,
      "material": null
    },
    {
      "gid": "10119",
      "address": "г.Молодечно, угол ул.В.Гостинец-ул.Ф.Скорины",
      "name": "В",
      "lon": 26.850127,
      "lat": 54.306215,
      "construction_format": "Билборды",
      "display_type": "Статика",
      "lighting": null,
      "size": null,
      "material": null
    },
    {
      "gid": "11649",
      "address": "ул.Ленина(ОАО «Оршаагропроммаш»)",
      "name": "А",
      "lon": 30.447725,
      "lat": 54.539151,
      "construction_format": "Билборды",
      "display_type": "Статика",
      "lighting": null,
      "size": null,
      "material": null
    },
    {
      "gid": "11649",
      "address": "ул.Ленина(ОАО «Оршаагропроммаш»)",
      "name": "В",
      "lon": 30.447725,
      "lat": 54.539151,
      "construction_format": "Билборды",
      "display_type": "Статика",
      "lighting": null,
      "size": null,
      "material": null
    },
    {
      "gid": "10137",
      "address": "г.Сморгонь, угол ул.Гагарина ул.Я.Колоса",
      "name": "А",
      "lon": 26.39975493175417,
      "lat": 54.476475228752854,
      "construction_format": "Билборды",
      "display_type": "Статика",
      "lighting": null,
      "size": null,
      "material": null
    },
    {
      "gid": "10137",
      "address": "г.Сморгонь, угол ул.Гагарина ул.Я.Колоса",
      "name": "В",
      "lon": 26.39975493175417,
      "lat": 54.476475228752854,
      "construction_format": "Билборды",
      "display_type": "Статика",
      "lighting": null,
      "size": null,
      "material": null
    },
    {
      "gid": "10138",
      "address": "г.Сморгонь, угол ул.Я.Коласа - ул.Юбилейная",
      "name": "А",
      "lon": 26.409692723323978,
      "lat": 54.47563705952023,
      "construction_format": "Билборды",
      "display_type": "Статика",
      "lighting": null,
      "size": null,
      "material": null
    },
    {
      "gid": "10138",
      "address": "г.Сморгонь, угол ул.Я.Коласа - ул.Юбилейная",
      "name": "В",
      "lon": 26.409692723323978,
      "lat": 54.47563705952023,
      "construction_format": "Билборды",
      "display_type": "Статика",
      "lighting": null,
      "size": null,
      "material": null
    },
    {
      "gid": "10139",
      "address": "г.Сморгонь, ул.Ленина, напротив дома 93",
      "name": "А",
      "lon": 26.420250076393373,
      "lat": 54.47811847263273,
      "construction_format": "Билборды",
      "display_type": "Статика",
      "lighting": null,
      "size": null,
      "material": null
    },
    {
      "gid": "10139",
      "address": "г.Сморгонь, ул.Ленина, напротив дома 93",
      "name": "В",
      "lon": 26.420250076393373,
      "lat": 54.47811847263273,
      "construction_format": "Билборды",
      "display_type": "Статика",
      "lighting": null,
      "size": null,
      "material": null
    },
    {
      "gid": "11666",
      "address": "ул.Комсомольская/ул.Ленина",
      "name": "А",
      "lon": 30.425505,
      "lat": 54.508478,
      "construction_format": "Ситиборды",
      "display_type": "Статика",
      "lighting": null,
      "size": null,
      "material": null
    },
    {
      "gid": "10140",
      "address": "г. Сморгонь, ул.Советская, напротив дома 92",
      "name": "А",
      "lon": 26.380006584394778,
      "lat": 54.486427086681886,
      "construction_format": "Билборды",
      "display_type": "Статика",
      "lighting": null,
      "size": null,
      "material": null
    },
    {
      "gid": "10140",
      "address": "г. Сморгонь, ул.Советская, напротив дома 92",
      "name": "В",
      "lon": 26.380006584394778,
      "lat": 54.486427086681886,
      "construction_format": "Билборды",
      "display_type": "Статика",
      "lighting": null,
      "size": null,
      "material": null
    },
    {
      "gid": "11667",
      "address": "ул.Комсомольская",
      "name": "А",
      "lon": 30.422755,
      "lat": 54.509768,
      "construction_format": "Нетиповые форматы",
      "display_type": "Статика",
      "lighting": null,
      "size": null,
      "material": null
    },
    {
      "gid": "11667",
      "address": "ул.Комсомольская",
      "name": "В",
      "lon": 30.422755,
      "lat": 54.509768,
      "construction_format": "Нетиповые форматы",
      "display_type": "Статика",
      "lighting": null,
      "size": null,
      "material": null
    },
    {
      "gid": "11667",
      "address": "ул.Комсомольская",
      "name": "С",
      "lon": 30.422755,
      "lat": 54.509768,
      "construction_format": "Нетиповые форматы",
      "display_type": "Статика",
      "lighting": null,
      "size": null,
      "material": null
    },
    {
      "gid": "10141",
      "address": "г.Сморгонь, ул.Я.Коласа, 120 (возле гипермаркета Евроопт)",
      "name": "А",
      "lon": 26.416553305277205,
      "lat": 54.47331705629213,
      "construction_format": "Билборды",
      "display_type": "Статика",
      "lighting": null,
      "size": null,
      "material": null
    },
    {
      "gid": "10141",
      "address": "г.Сморгонь, ул.Я.Коласа, 120 (возле гипермаркета Евроопт)",
      "name": "В",
      "lon": 26.416553305277205,
      "lat": 54.47331705629213,
      "construction_format": "Билборды",
      "display_type": "Статика",
      "lighting": null,
      "size": null,
      "material": null
    },
    {
      "gid": "11668",
      "address": "ул. Воз-ан-Влен(магазин «Валентина»)",
      "name": "А",
      "lon": 30.42872,
      "lat": 54.491086,
      "construction_format": "Билборды",
      "display_type": "Статика",
      "lighting": null,
      "size": null,
      "material": null
    },
    {
      "gid": "11668",
      "address": "ул. Воз-ан-Влен(магазин «Валентина»)",
      "name": "В",
      "lon": 30.42872,
      "lat": 54.491086,
      "construction_format": "Билборды",
      "display_type": "Статика",
      "lighting": null,
      "size": null,
      "material": null
    },
    {
      "gid": "10142",
      "address": "г.Сморгонь, ул.Синицкого, 8",
      "name": "А",
      "lon": 26.415154243464972,
      "lat": 54.47706778296692,
      "construction_format": "Билборды",
      "display_type": "Статика",
      "lighting": null,
      "size": null,
      "material": null
    },
    {
      "gid": "10142",
      "address": "г.Сморгонь, ул.Синицкого, 8",
      "name": "В",
      "lon": 26.415154243464972,
      "lat": 54.47706778296692,
      "construction_format": "Билборды",
      "display_type": "Статика",
      "lighting": null,
      "size": null,
      "material": null
    },
    {
      "gid": "11669",
      "address": "ул. Ленина («Доброном»)",
      "name": "А",
      "lon": 30.433681,
      "lat": 54.518367,
      "construction_format": "Билборды",
      "display_type": "Статика",
      "lighting": null,
      "size": null,
      "material": null
    },
    {
      "gid": "11669",
      "address": "ул. Ленина («Доброном»)",
      "name": "В",
      "lon": 30.433681,
      "lat": 54.518367,
      "construction_format": "Билборды",
      "display_type": "Статика",
      "lighting": null,
      "size": null,
      "material": null
    },
    {
      "gid": "11670",
      "address": "ул. Гомельская – ул.Воз-ан-Влен – ул.Флёрова",
      "name": "А",
      "lon": 30.432846,
      "lat": 54.493364,
      "construction_format": "Билборды",
      "display_type": "Статика",
      "lighting": null,
      "size": null,
      "material": null
    },
    {
      "gid": "11670",
      "address": "ул. Гомельская – ул.Воз-ан-Влен – ул.Флёрова",
      "name": "В",
      "lon": 30.432846,
      "lat": 54.493364,
      "construction_format": "Билборды",
      "display_type": "Статика",
      "lighting": null,
      "size": null,
      "material": null
    },
    {
      "gid": "11671",
      "address": "ул.Молокова – у.Мира",
      "name": "А",
      "lon": 30.385276,
      "lat": 54.514873,
      "construction_format": "Билборды",
      "display_type": "Статика",
      "lighting": null,
      "size": null,
      "material": null
    },
    {
      "gid": "11671",
      "address": "ул.Молокова – у.Мира",
      "name": "В",
      "lon": 30.385276,
      "lat": 54.514873,
      "construction_format": "Билборды",
      "display_type": "Статика",
      "lighting": null,
      "size": null,
      "material": null
    },
    {
      "gid": "11672",
      "address": "ул. Шевченко (Юнипол)",
      "name": "А",
      "lon": 30.435012,
      "lat": 54.520901,
      "construction_format": "Нетиповые форматы",
      "display_type": "Статика",
      "lighting": null,
      "size": null,
      "material": null
    },
    {
      "gid": "11672",
      "address": "ул. Шевченко (Юнипол)",
      "name": "В",
      "lon": 30.435012,
      "lat": 54.520901,
      "construction_format": "Нетиповые форматы",
      "display_type": "Статика",
      "lighting": null,
      "size": null,
      "material": null
    },
    {
      "gid": "11672",
      "address": "ул. Шевченко (Юнипол)",
      "name": "С",
      "lon": 30.435012,
      "lat": 54.520901,
      "construction_format": "Нетиповые форматы",
      "display_type": "Статика",
      "lighting": null,
      "size": null,
      "material": null
    },
    {
      "gid": "11673",
      "address": "ул.Якубовского (Легмаш)",
      "name": "А",
      "lon": 30.395845,
      "lat": 54.512037,
      "construction_format": "Билборды",
      "display_type": "Статика",
      "lighting": null,
      "size": null,
      "material": null
    },
    {
      "gid": "11673",
      "address": "ул.Якубовского (Легмаш)",
      "name": "В",
      "lon": 30.395845,
      "lat": 54.512037,
      "construction_format": "Билборды",
      "display_type": "Статика",
      "lighting": null,
      "size": null,
      "material": null
    },
    {
      "gid": "10120",
      "address": "г.Молодечно, угол ул.В.Гостинец-ул.Виленская",
      "name": "А",
      "lon": 26.838092,
      "lat": 54.305722,
      "construction_format": "Билборды",
      "display_type": "Статика",
      "lighting": null,
      "size": null,
      "material": null
    },
    {
      "gid": "10120",
      "address": "г.Молодечно, угол ул.В.Гостинец-ул.Виленская",
      "name": "В",
      "lon": 26.838092,
      "lat": 54.305722,
      "construction_format": "Билборды",
      "display_type": "Статика",
      "lighting": null,
      "size": null,
      "material": null
    },
    {
      "gid": "11650",
      "address": "ул.Мираул. Пограничная",
      "name": "А",
      "lon": 30.404469,
      "lat": 54.513633,
      "construction_format": "Билборды",
      "display_type": "Статика",
      "lighting": null,
      "size": null,
      "material": null
    },
    {
      "gid": "10143",
      "address": "г.Островец, угол ул.Володарского и К.Сваяка",
      "name": "А",
      "lon": 25.980590386077083,
      "lat": 54.61411182198129,
      "construction_format": "Билборды",
      "display_type": "Статика",
      "lighting": null,
      "size": null,
      "material": null
    },
    {
      "gid": "10143",
      "address": "г.Островец, угол ул.Володарского и К.Сваяка",
      "name": "В",
      "lon": 25.980590386077083,
      "lat": 54.61411182198129,
      "construction_format": "Билборды",
      "display_type": "Статика",
      "lighting": null,
      "size": null,
      "material": null
    },
    {
      "gid": "11674",
      "address": "ул.Мира,39А(Инструментальный)",
      "name": "А",
      "lon": 30.405026,
      "lat": 54.51834,
      "construction_format": "Билборды",
      "display_type": "Статика",
      "lighting": null,
      "size": null,
      "material": null
    },
    {
      "gid": "10144",
      "address": "г.Островец, ул.Ленинская, напротив дома № 60",
      "name": "А",
      "lon": 25.94907556402941,
      "lat": 54.612833963846604,
      "construction_format": "Билборды",
      "display_type": "Статика",
      "lighting": null,
      "size": null,
      "material": null
    },
    {
      "gid": "10144",
      "address": "г.Островец, ул.Ленинская, напротив дома № 60",
      "name": "В",
      "lon": 25.94907556402941,
      "lat": 54.612833963846604,
      "construction_format": "Билборды",
      "display_type": "Статика",
      "lighting": null,
      "size": null,
      "material": null
    },
    {
      "gid": "10145",
      "address": "г.Ошмяны, ул.Советская (в зеленой зоне возле моста через р.Лейлубка)",
      "name": "А",
      "lon": 25.954175665138244,
      "lat": 54.430797218537435,
      "construction_format": "Билборды",
      "display_type": "Статика",
      "lighting": null,
      "size": null,
      "material": null
    },
    {
      "gid": "10146",
      "address": "г.Ошмяны, ул.Красноармейская, возле дома 94",
      "name": "А",
      "lon": 25.9135205396023,
      "lat": 54.42589519987185,
      "construction_format": "Билборды",
      "display_type": "Статика",
      "lighting": null,
      "size": null,
      "material": null
    },
    {
      "gid": "10146",
      "address": "г.Ошмяны, ул.Красноармейская, возле дома 94",
      "name": "В",
      "lon": 25.9135205396023,
      "lat": 54.42589519987185,
      "construction_format": "Билборды",
      "display_type": "Статика",
      "lighting": null,
      "size": null,
      "material": null
    },
    {
      "gid": "10121",
      "address": "г.Молодечно, угол ул.В.Гостинец-ул.Космонавтов",
      "name": "А",
      "lon": 26.851496,
      "lat": 54.302719,
      "construction_format": "Билборды",
      "display_type": "Статика",
      "lighting": null,
      "size": null,
      "material": null
    },
    {
      "gid": "11651",
      "address": ".   ул.Мираул. Якубовского",
      "name": "А",
      "lon": 30.402726,
      "lat": 54.513436,
      "construction_format": "Билборды",
      "display_type": "Статика",
      "lighting": null,
      "size": null,
      "material": null
    },
    {
      "gid": "10122",
      "address": "г.Молодечно, ул.В.Гостинец, возле остановки \"магазин Елгава\"",
      "name": "А",
      "lon": 26.845241,
      "lat": 54.303546,
      "construction_format": "Билборды",
      "display_type": "Статика",
      "lighting": null,
      "size": null,
      "material": null
    },
    {
      "gid": "11652",
      "address": "ул.Могилёвская (супермаркет «MART INN»)",
      "name": "А",
      "lon": 30.437038,
      "lat": 54.494667,
      "construction_format": "Билборды",
      "display_type": "Статика",
      "lighting": null,
      "size": null,
      "material": null
    },
    {
      "gid": "11652",
      "address": "ул.Могилёвская (супермаркет «MART INN»)",
      "name": "В",
      "lon": 30.437038,
      "lat": 54.494667,
      "construction_format": "Билборды",
      "display_type": "Статика",
      "lighting": null,
      "size": null,
      "material": null
    },
    {
      "gid": "10147",
      "address": "г.Островец, ул.Ленинская, возле стоянки около моста через р.Лоша",
      "name": "А",
      "lon": 25.952489560107416,
      "lat": 54.61408222589747,
      "construction_format": "Билборды",
      "display_type": "Статика",
      "lighting": null,
      "size": null,
      "material": null
    },
    {
      "gid": "10147",
      "address": "г.Островец, ул.Ленинская, возле стоянки около моста через р.Лоша",
      "name": "В",
      "lon": 25.952489560107416,
      "lat": 54.61408222589747,
      "construction_format": "Билборды",
      "display_type": "Статика",
      "lighting": null,
      "size": null,
      "material": null
    },
    {
      "gid": "10148",
      "address": "г.Ошмяны, ул.Борунская (возле КБО)",
      "name": "А",
      "lon": 25.93992673537879,
      "lat": 54.42436442701479,
      "construction_format": "Билборды",
      "display_type": "Статика",
      "lighting": null,
      "size": null,
      "material": null
    },
    {
      "gid": "10148",
      "address": "г.Ошмяны, ул.Борунская (возле КБО)",
      "name": "В",
      "lon": 25.93992673537879,
      "lat": 54.42436442701479,
      "construction_format": "Билборды",
      "display_type": "Статика",
      "lighting": null,
      "size": null,
      "material": null
    },
    {
      "gid": "10149",
      "address": "г.Молодечно, ул.В.Гостинец (Здемелево)",
      "name": "А",
      "lon": 26.796707,
      "lat": 54.311893,
      "construction_format": "Билборды",
      "display_type": "Статика",
      "lighting": null,
      "size": null,
      "material": null
    },
    {
      "gid": "10149",
      "address": "г.Молодечно, ул.В.Гостинец (Здемелево)",
      "name": "В",
      "lon": 26.796707,
      "lat": 54.311893,
      "construction_format": "Билборды",
      "display_type": "Статика",
      "lighting": null,
      "size": null,
      "material": null
    },
    {
      "gid": "10123",
      "address": "г.Молодечно, ул.В.Гостинец, возле остановочного пункта \"Стоматологическая поликлиника\"",
      "name": "А1",
      "lon": 26.854581,
      "lat": 54.302711,
      "construction_format": "Билборды",
      "display_type": "Статика",
      "lighting": null,
      "size": null,
      "material": null
    },
    {
      "gid": "10123",
      "address": "г.Молодечно, ул.В.Гостинец, возле остановочного пункта \"Стоматологическая поликлиника\"",
      "name": "А2",
      "lon": 26.854581,
      "lat": 54.302711,
      "construction_format": "Билборды",
      "display_type": "Статика",
      "lighting": null,
      "size": null,
      "material": null
    },
    {
      "gid": "10123",
      "address": "г.Молодечно, ул.В.Гостинец, возле остановочного пункта \"Стоматологическая поликлиника\"",
      "name": "В1",
      "lon": 26.854581,
      "lat": 54.302711,
      "construction_format": "Билборды",
      "display_type": "Статика",
      "lighting": null,
      "size": null,
      "material": null
    },
    {
      "gid": "10123",
      "address": "г.Молодечно, ул.В.Гостинец, возле остановочного пункта \"Стоматологическая поликлиника\"",
      "name": "В2",
      "lon": 26.854581,
      "lat": 54.302711,
      "construction_format": "Билборды",
      "display_type": "Статика",
      "lighting": null,
      "size": null,
      "material": null
    },
    {
      "gid": "11653",
      "address": ".   ул.Могилёвская (ТЦ «МИР», «Евроопт»))",
      "name": "А",
      "lon": 30.436596,
      "lat": 54.50223,
      "construction_format": "Нетиповые форматы",
      "display_type": "Статика",
      "lighting": null,
      "size": null,
      "material": null
    },
    {
      "gid": "10124",
      "address": "г.Молодечно, угол ул.Притыцкого-ул.Громадовская",
      "name": "А",
      "lon": 26.839062,
      "lat": 54.311085,
      "construction_format": "Билборды",
      "display_type": "Статика",
      "lighting": null,
      "size": null,
      "material": null
    },
    {
      "gid": "10124",
      "address": "г.Молодечно, угол ул.Притыцкого-ул.Громадовская",
      "name": "В",
      "lon": 26.839062,
      "lat": 54.311085,
      "construction_format": "Билборды",
      "display_type": "Статика",
      "lighting": null,
      "size": null,
      "material": null
    },
    {
      "gid": "11654",
      "address": "ул.Пушкина/ул.Кирова (микрорайон «Восточный»)",
      "name": "А",
      "lon": 30.412648,
      "lat": 54.508877,
      "construction_format": "Билборды",
      "display_type": "Статика",
      "lighting": null,
      "size": null,
      "material": null
    },
    {
      "gid": "10125",
      "address": "г.Молодечно, ул.Толстого, возле дома №1",
      "name": "А",
      "lon": 26.840943,
      "lat": 54.306588,
      "construction_format": "Билборды",
      "display_type": "Статика",
      "lighting": null,
      "size": null,
      "material": null
    },
    {
      "gid": "10125",
      "address": "г.Молодечно, ул.Толстого, возле дома №1",
      "name": "В",
      "lon": 26.840943,
      "lat": 54.306588,
      "construction_format": "Билборды",
      "display_type": "Статика",
      "lighting": null,
      "size": null,
      "material": null
    },
    {
      "gid": "11655",
      "address": ".    ул.Могилёвская, 4 (мемориал «Катюша»)",
      "name": "А",
      "lon": 30.431753,
      "lat": 54.505771,
      "construction_format": "Билборды",
      "display_type": "Статика",
      "lighting": null,
      "size": null,
      "material": null
    },
    {
      "gid": "11655",
      "address": ".    ул.Могилёвская, 4 (мемориал «Катюша»)",
      "name": "В",
      "lon": 30.431753,
      "lat": 54.505771,
      "construction_format": "Билборды",
      "display_type": "Статика",
      "lighting": null,
      "size": null,
      "material": null
    },
    {
      "gid": "10126",
      "address": "г.Молодечно, ул.В.Гостинец, возле супермаркета \"Рублевский\"",
      "name": "А",
      "lon": 26.848687,
      "lat": 54.303097,
      "construction_format": "Билборды",
      "display_type": "Статика",
      "lighting": null,
      "size": null,
      "material": null
    },
    {
      "gid": "10126",
      "address": "г.Молодечно, ул.В.Гостинец, возле супермаркета \"Рублевский\"",
      "name": "В",
      "lon": 26.848687,
      "lat": 54.303097,
      "construction_format": "Билборды",
      "display_type": "Статика",
      "lighting": null,
      "size": null,
      "material": null
    },
    {
      "gid": "11656",
      "address": "ул.Советская(о/п «Свитанак»)",
      "name": "А",
      "lon": 30.41416,
      "lat": 54.503801,
      "construction_format": "Билборды",
      "display_type": "Статика",
      "lighting": null,
      "size": null,
      "material": null
    },
    {
      "gid": "11656",
      "address": "ул.Советская(о/п «Свитанак»)",
      "name": "В",
      "lon": 30.41416,
      "lat": 54.503801,
      "construction_format": "Билборды",
      "display_type": "Статика",
      "lighting": null,
      "size": null,
      "material": null
    },
    {
      "gid": "9981",
      "address": "1-2 Ул. Минская (ТЦ \"Виталюр\")",
      "name": "А",
      "lon": 29.195786,
      "lat": 53.180061,
      "construction_format": "Билборды",
      "display_type": "Статика",
      "lighting": null,
      "size": null,
      "material": null
    },
    {
      "gid": "9981",
      "address": "1-2 Ул. Минская (ТЦ \"Виталюр\")",
      "name": "В",
      "lon": 29.195786,
      "lat": 53.180061,
      "construction_format": "Билборды",
      "display_type": "Статика",
      "lighting": null,
      "size": null,
      "material": null
    },
    {
      "gid": "7546",
      "address": "1. Билборд м напр.Независимости, 191б(1)",
      "name": "А",
      "lon": 27.70385726,
      "lat": 53.95064419,
      "construction_format": "Билборды",
      "display_type": "Статика",
      "lighting": null,
      "size": "6x3",
      "material": null
    },
    {
      "gid": "7546",
      "address": "1. Билборд м напр.Независимости, 191б(1)",
      "name": "В",
      "lon": 27.70385726,
      "lat": 53.95064419,
      "construction_format": "Билборды",
      "display_type": "Статика",
      "lighting": null,
      "size": "6x3",
      "material": null
    },
    {
      "gid": "8123",
      "address": "1 Космонавтов пр. и ул. Ефремова (корпус «Мед. Университета»)",
      "name": "А",
      "lon": 30.959263957831848,
      "lat": 52.455738215500546,
      "construction_format": "Билборды",
      "display_type": "Статика",
      "lighting": null,
      "size": null,
      "material": null
    },
    {
      "gid": "7555",
      "address": "10. Биллборд м на МКАД 12+470 км (район ул.Свислочская – ул. Ташкентская, 10-я больница)",
      "name": "А",
      "lon": 27.66304388,
      "lat": 53.84118565,
      "construction_format": "Билборды",
      "display_type": "Статика",
      "lighting": null,
      "size": "8x4",
      "material": null
    },
    {
      "gid": "7555",
      "address": "10. Биллборд м на МКАД 12+470 км (район ул.Свислочская – ул. Ташкентская, 10-я больница)",
      "name": "В",
      "lon": 27.66304388,
      "lat": 53.84118565,
      "construction_format": "Билборды",
      "display_type": "Статика",
      "lighting": null,
      "size": "8x4",
      "material": null
    },
    {
      "gid": "7591",
      "address": "ул. Красная-пр-т Машерова",
      "name": "А",
      "lon": 27.57481011,
      "lat": 53.91317101,
      "construction_format": "Билборды",
      "display_type": "Статика",
      "lighting": null,
      "size": null,
      "material": null
    },
    {
      "gid": "7670",
      "address": "100-Пр.-Партизанский,-84",
      "name": "А",
      "lon": 27.645215642045034,
      "lat": 53.86986879614372,
      "construction_format": "Билборды",
      "display_type": "Статика",
      "lighting": null,
      "size": null,
      "material": null
    },
    {
      "gid": "7671",
      "address": "101-Пр. Партизанский, перед развязкой с МКАД",
      "name": "А",
      "lon": 27.67612013498934,
      "lat": 53.861206863992734,
      "construction_format": "Билборды",
      "display_type": "Статика",
      "lighting": null,
      "size": null,
      "material": null
    },
    {
      "gid": "7671",
      "address": "101-Пр. Партизанский, перед развязкой с МКАД",
      "name": "В",
      "lon": 27.67612013498934,
      "lat": 53.861206863992734,
      "construction_format": "Билборды",
      "display_type": "Статика",
      "lighting": null,
      "size": null,
      "material": null
    },
    {
      "gid": "7672",
      "address": "102 МКАД, 33-й км (пересечение с ул. Мазурова)",
      "name": "А",
      "lon": 27.410628899776924,
      "lat": 53.895085301533854,
      "construction_format": "Билборды",
      "display_type": "Статика",
      "lighting": null,
      "size": null,
      "material": null
    },
    {
      "gid": "7672",
      "address": "102 МКАД, 33-й км (пересечение с ул. Мазурова)",
      "name": "В",
      "lon": 27.410628899776924,
      "lat": 53.895085301533854,
      "construction_format": "Билборды",
      "display_type": "Статика",
      "lighting": null,
      "size": null,
      "material": null
    },
    {
      "gid": "7673",
      "address": "103 МКАД, 30-й км (пересечение с ул. Монтажников)",
      "name": "А",
      "lon": 27.42131176460221,
      "lat": 53.87141173776658,
      "construction_format": "Билборды",
      "display_type": "Статика",
      "lighting": null,
      "size": null,
      "material": null
    },
    {
      "gid": "7673",
      "address": "103 МКАД, 30-й км (пересечение с ул. Монтажников)",
      "name": "В",
      "lon": 27.42131176460221,
      "lat": 53.87141173776658,
      "construction_format": "Билборды",
      "display_type": "Статика",
      "lighting": null,
      "size": null,
      "material": null
    },
    {
      "gid": "7674",
      "address": "104 Ул. Матусевича, 66",
      "name": "А",
      "lon": 27.454980253303493,
      "lat": 53.91758564399112,
      "construction_format": "Билборды",
      "display_type": "Статика",
      "lighting": null,
      "size": null,
      "material": null
    },
    {
      "gid": "7675",
      "address": "105 МКАД, 11-й км, пересечение с ул. Свислочской",
      "name": "А",
      "lon": 27.667713960195513,
      "lat": 53.84593991193982,
      "construction_format": "Билборды",
      "display_type": "Статика",
      "lighting": null,
      "size": null,
      "material": null
    },
    {
      "gid": "7675",
      "address": "105 МКАД, 11-й км, пересечение с ул. Свислочской",
      "name": "В",
      "lon": 27.667713960195513,
      "lat": 53.84593991193982,
      "construction_format": "Билборды",
      "display_type": "Статика",
      "lighting": null,
      "size": null,
      "material": null
    },
    {
      "gid": "7676",
      "address": "106 Ул. Матусевича, 72",
      "name": "А",
      "lon": 27.450045039654263,
      "lat": 53.917911673378704,
      "construction_format": "Билборды",
      "display_type": "Статика",
      "lighting": null,
      "size": null,
      "material": null
    },
    {
      "gid": "7676",
      "address": "106 Ул. Матусевича, 72",
      "name": "В",
      "lon": 27.450045039654263,
      "lat": 53.917911673378704,
      "construction_format": "Билборды",
      "display_type": "Статика",
      "lighting": null,
      "size": null,
      "material": null
    },
    {
      "gid": "7677",
      "address": "107 Ул. Притыцкого, ТРЦ Скала",
      "name": "А",
      "lon": 27.468888537415705,
      "lat": 53.907897203619335,
      "construction_format": "Билборды",
      "display_type": "Статика",
      "lighting": null,
      "size": null,
      "material": null
    },
    {
      "gid": "7677",
      "address": "107 Ул. Притыцкого, ТРЦ Скала",
      "name": "В",
      "lon": 27.468888537415705,
      "lat": 53.907897203619335,
      "construction_format": "Билборды",
      "display_type": "Статика",
      "lighting": null,
      "size": null,
      "material": null
    },
    {
      "gid": "7678",
      "address": "108 Ул. Притыцкого, 79",
      "name": "А",
      "lon": 27.457490927332316,
      "lat": 53.9062514306162,
      "construction_format": "Билборды",
      "display_type": "Статика",
      "lighting": null,
      "size": null,
      "material": null
    },
    {
      "gid": "7679",
      "address": "109 Ул. Богдановича, напротив д. 112",
      "name": "А",
      "lon": 27.58067218193587,
      "lat": 53.93520745721455,
      "construction_format": "Билборды",
      "display_type": "Статика",
      "lighting": null,
      "size": null,
      "material": null
    },
    {
      "gid": "9985",
      "address": "11-13 ул. Минская-ул. Крылова (призма)",
      "name": "А1",
      "lon": 29.215486,
      "lat": 53.157496,
      "construction_format": "Нетиповые форматы",
      "display_type": "Призматрон",
      "lighting": null,
      "size": null,
      "material": null
    },
    {
      "gid": "9985",
      "address": "11-13 ул. Минская-ул. Крылова (призма)",
      "name": "А2",
      "lon": 29.215486,
      "lat": 53.157496,
      "construction_format": "Нетиповые форматы",
      "display_type": "Призматрон",
      "lighting": null,
      "size": null,
      "material": null
    },
    {
      "gid": "9985",
      "address": "11-13 ул. Минская-ул. Крылова (призма)",
      "name": "А3",
      "lon": 29.215486,
      "lat": 53.157496,
      "construction_format": "Нетиповые форматы",
      "display_type": "Призматрон",
      "lighting": null,
      "size": null,
      "material": null
    },
    {
      "gid": "7556",
      "address": "11. Биллборд м на МКАД 12+670 км (район ул.Свислочская – ул. Ташкентская, 10-я больница)",
      "name": "А",
      "lon": 27.65645814,
      "lat": 53.83739026,
      "construction_format": "Билборды",
      "display_type": "Статика",
      "lighting": null,
      "size": "8x4",
      "material": null
    },
    {
      "gid": "7556",
      "address": "11. Биллборд м на МКАД 12+670 км (район ул.Свислочская – ул. Ташкентская, 10-я больница)",
      "name": "В",
      "lon": 27.65645814,
      "lat": 53.83739026,
      "construction_format": "Билборды",
      "display_type": "Статика",
      "lighting": null,
      "size": "8x4",
      "material": null
    },
    {
      "gid": "7680",
      "address": "110 Ул. Богдановича, напротив д. 108",
      "name": "А",
      "lon": 27.578494047880262,
      "lat": 53.933158491300155,
      "construction_format": "Билборды",
      "display_type": "Статика",
      "lighting": null,
      "size": null,
      "material": null
    },
    {
      "gid": "7681",
      "address": "111 Ул. Богдановича, напротив д. 88",
      "name": "А",
      "lon": 27.577621682859235,
      "lat": 53.932263400371085,
      "construction_format": "Билборды",
      "display_type": "Статика",
      "lighting": null,
      "size": null,
      "material": null
    },
    {
      "gid": "7682",
      "address": "112 Ул. Орловская, Сквер №1",
      "name": "А",
      "lon": 27.57374631727737,
      "lat": 53.9321624764349,
      "construction_format": "Билборды",
      "display_type": "Статика",
      "lighting": null,
      "size": null,
      "material": null
    },
    {
      "gid": "7683",
      "address": "113 Пр. Пушкина, 50",
      "name": "А",
      "lon": 27.494088884978325,
      "lat": 53.91536615127371,
      "construction_format": "Билборды",
      "display_type": "Статика",
      "lighting": null,
      "size": null,
      "material": null
    },
    {
      "gid": "7684",
      "address": "114 Ул. Орды, 6 №2",
      "name": "А",
      "lon": 27.477284443125455,
      "lat": 53.842946663045595,
      "construction_format": "Билборды",
      "display_type": "Статика",
      "lighting": null,
      "size": null,
      "material": null
    },
    {
      "gid": "7684",
      "address": "114 Ул. Орды, 6 №2",
      "name": "В",
      "lon": 27.477284443125455,
      "lat": 53.842946663045595,
      "construction_format": "Билборды",
      "display_type": "Статика",
      "lighting": null,
      "size": null,
      "material": null
    },
    {
      "gid": "7685",
      "address": "115 Ул. Бабушкина, 6а",
      "name": "А",
      "lon": 27.579986663870574,
      "lat": 53.821568679891875,
      "construction_format": "Билборды",
      "display_type": "Статика",
      "lighting": null,
      "size": null,
      "material": null
    },
    {
      "gid": "7685",
      "address": "115 Ул. Бабушкина, 6а",
      "name": "В",
      "lon": 27.579986663870574,
      "lat": 53.821568679891875,
      "construction_format": "Билборды",
      "display_type": "Статика",
      "lighting": null,
      "size": null,
      "material": null
    },
    {
      "gid": "7686",
      "address": "116 Ул. Серова",
      "name": "А",
      "lon": 27.538933544726397,
      "lat": 53.843405191023315,
      "construction_format": "Билборды",
      "display_type": "Статика",
      "lighting": null,
      "size": null,
      "material": null
    },
    {
      "gid": "7686",
      "address": "116 Ул. Серова",
      "name": "В",
      "lon": 27.538933544726397,
      "lat": 53.843405191023315,
      "construction_format": "Билборды",
      "display_type": "Статика",
      "lighting": null,
      "size": null,
      "material": null
    },
    {
      "gid": "7687",
      "address": "117 Пр. Дзержинского (развязка с МКАД, выезд из Минска)",
      "name": "А",
      "lon": 27.467904274957608,
      "lat": 53.84183003908104,
      "construction_format": "Билборды",
      "display_type": "Статика",
      "lighting": null,
      "size": null,
      "material": null
    },
    {
      "gid": "7687",
      "address": "117 Пр. Дзержинского (развязка с МКАД, выезд из Минска)",
      "name": "В",
      "lon": 27.467904274957608,
      "lat": 53.84183003908104,
      "construction_format": "Билборды",
      "display_type": "Статика",
      "lighting": null,
      "size": null,
      "material": null
    },
    {
      "gid": "7688",
      "address": "118 Ул. Всехсвятская, №3",
      "name": "А",
      "lon": 27.66517920013272,
      "lat": 53.94548733512109,
      "construction_format": "Билборды",
      "display_type": "Статика",
      "lighting": null,
      "size": null,
      "material": null
    },
    {
      "gid": "7688",
      "address": "118 Ул. Всехсвятская, №3",
      "name": "В",
      "lon": 27.66517920013272,
      "lat": 53.94548733512109,
      "construction_format": "Билборды",
      "display_type": "Статика",
      "lighting": null,
      "size": null,
      "material": null
    },
    {
      "gid": "7689",
      "address": "119 Игуменский тракт (съезд с МКАД)",
      "name": "А",
      "lon": 27.57535073675259,
      "lat": 53.83379517684582,
      "construction_format": "Билборды",
      "display_type": "Статика",
      "lighting": null,
      "size": null,
      "material": null
    },
    {
      "gid": "7592",
      "address": "А ул. Тимирязева, 121-1",
      "name": "А",
      "lon": 27.46195872,
      "lat": 53.93229298,
      "construction_format": "Билборды",
      "display_type": "Статика",
      "lighting": null,
      "size": null,
      "material": null
    },
    {
      "gid": "7557",
      "address": "12. Биллборд м на МКАД 13+655 км  (до съездана ул. Ташкентская)",
      "name": "А",
      "lon": 27.64006133,
      "lat": 53.83393168,
      "construction_format": "Билборды",
      "display_type": "Статика",
      "lighting": null,
      "size": "8x4",
      "material": null
    },
    {
      "gid": "7557",
      "address": "12. Биллборд м на МКАД 13+655 км  (до съездана ул. Ташкентская)",
      "name": "В",
      "lon": 27.64006133,
      "lat": 53.83393168,
      "construction_format": "Билборды",
      "display_type": "Статика",
      "lighting": null,
      "size": "8x4",
      "material": null
    },
    {
      "gid": "7690",
      "address": "120 Ул. Бабушкина, 8а",
      "name": "А",
      "lon": 27.58161650287711,
      "lat": 53.818322589369004,
      "construction_format": "Билборды",
      "display_type": "Статика",
      "lighting": null,
      "size": null,
      "material": null
    },
    {
      "gid": "7690",
      "address": "120 Ул. Бабушкина, 8а",
      "name": "В",
      "lon": 27.58161650287711,
      "lat": 53.818322589369004,
      "construction_format": "Билборды",
      "display_type": "Статика",
      "lighting": null,
      "size": null,
      "material": null
    },
    {
      "gid": "7691",
      "address": "121 Ул. Сырокомли, 18 (ТЦ Автозапчасть)",
      "name": "А",
      "lon": 27.560638796111355,
      "lat": 53.842497233230446,
      "construction_format": "Билборды",
      "display_type": "Статика",
      "lighting": null,
      "size": null,
      "material": null
    },
    {
      "gid": "7691",
      "address": "121 Ул. Сырокомли, 18 (ТЦ Автозапчасть)",
      "name": "В",
      "lon": 27.560638796111355,
      "lat": 53.842497233230446,
      "construction_format": "Билборды",
      "display_type": "Статика",
      "lighting": null,
      "size": null,
      "material": null
    },
    {
      "gid": "7692",
      "address": "122 Ул. Даумана",
      "name": "А",
      "lon": 27.551531515628714,
      "lat": 53.91987543292137,
      "construction_format": "Билборды",
      "display_type": "Статика",
      "lighting": null,
      "size": null,
      "material": null
    },
    {
      "gid": "7693",
      "address": "123 Ул. Шаранговича, 19",
      "name": "А",
      "lon": 27.452335752666734,
      "lat": 53.88733088054724,
      "construction_format": "Билборды",
      "display_type": "Статика",
      "lighting": null,
      "size": null,
      "material": null
    },
    {
      "gid": "7694",
      "address": "124 Пр. Рокоссовского, 1",
      "name": "А",
      "lon": 27.597175738770424,
      "lat": 53.874591919603745,
      "construction_format": "Билборды",
      "display_type": "Статика",
      "lighting": null,
      "size": null,
      "material": null
    },
    {
      "gid": "7695",
      "address": "125 Пр. Дзержинского, 100 (ТЦ Кирмаш)",
      "name": "А",
      "lon": 27.484075585439587,
      "lat": 53.86335965189896,
      "construction_format": "Билборды",
      "display_type": "Статика",
      "lighting": null,
      "size": null,
      "material": null
    },
    {
      "gid": "7696",
      "address": "126 Ул. Денисовская, 47",
      "name": "А",
      "lon": 27.579796200289447,
      "lat": 53.873586678812316,
      "construction_format": "Билборды",
      "display_type": "Статика",
      "lighting": null,
      "size": null,
      "material": null
    },
    {
      "gid": "7697",
      "address": "127 Пл. Казинца",
      "name": "А",
      "lon": 27.506756705047415,
      "lat": 53.84473277459045,
      "construction_format": "Билборды",
      "display_type": "Статика",
      "lighting": null,
      "size": null,
      "material": null
    },
    {
      "gid": "7698",
      "address": "128 Ул. Платонова, 32",
      "name": "А",
      "lon": 27.598344783176202,
      "lat": 53.91212738809634,
      "construction_format": "Билборды",
      "display_type": "Статика",
      "lighting": null,
      "size": null,
      "material": null
    },
    {
      "gid": "7698",
      "address": "128 Ул. Платонова, 32",
      "name": "В",
      "lon": 27.598344783176202,
      "lat": 53.91212738809634,
      "construction_format": "Билборды",
      "display_type": "Статика",
      "lighting": null,
      "size": null,
      "material": null
    },
    {
      "gid": "7699",
      "address": "129 Ул. Тимирязева, 46",
      "name": "А",
      "lon": 27.519656,
      "lat": 53.917288,
      "construction_format": "Билборды",
      "display_type": "Статика",
      "lighting": null,
      "size": null,
      "material": null
    },
    {
      "gid": "7699",
      "address": "129 Ул. Тимирязева, 46",
      "name": "В",
      "lon": 27.519656,
      "lat": 53.917288,
      "construction_format": "Билборды",
      "display_type": "Статика",
      "lighting": null,
      "size": null,
      "material": null
    },
    {
      "gid": "7593",
      "address": "А ул. Тимирязева, 121-2",
      "name": "А",
      "lon": 27.46126135,
      "lat": 53.93240536,
      "construction_format": "Билборды",
      "display_type": "Статика",
      "lighting": null,
      "size": null,
      "material": null
    },
    {
      "gid": "7558",
      "address": "13. Биллборд м на МКАД 13+940 км  (до съезда на ул. Ташкентская)",
      "name": "А",
      "lon": 27.63574397,
      "lat": 53.83392216,
      "construction_format": "Билборды",
      "display_type": "Статика",
      "lighting": null,
      "size": "8x4",
      "material": null
    },
    {
      "gid": "7558",
      "address": "13. Биллборд м на МКАД 13+940 км  (до съезда на ул. Ташкентская)",
      "name": "В",
      "lon": 27.63574397,
      "lat": 53.83392216,
      "construction_format": "Билборды",
      "display_type": "Статика",
      "lighting": null,
      "size": "8x4",
      "material": null
    },
    {
      "gid": "7700",
      "address": "130 Перекресток ул. Любимова - Пр. Газеты Известия",
      "name": "А",
      "lon": 27.46210392934611,
      "lat": 53.860152491458045,
      "construction_format": "Билборды",
      "display_type": "Статика",
      "lighting": null,
      "size": null,
      "material": null
    },
    {
      "gid": "7701",
      "address": "131 Ул. Ваупшасова (у МКАД)",
      "name": "А",
      "lon": 27.687936301575476,
      "lat": 53.90300834847308,
      "construction_format": "Билборды",
      "display_type": "Статика",
      "lighting": null,
      "size": null,
      "material": null
    },
    {
      "gid": "7701",
      "address": "131 Ул. Ваупшасова (у МКАД)",
      "name": "В",
      "lon": 27.687936301575476,
      "lat": 53.90300834847308,
      "construction_format": "Билборды",
      "display_type": "Статика",
      "lighting": null,
      "size": null,
      "material": null
    },
    {
      "gid": "7702",
      "address": "132 Ул. Пушкина, 32",
      "name": "А",
      "lon": 27.496079000405647,
      "lat": 53.90778736916035,
      "construction_format": "Билборды",
      "display_type": "Статика",
      "lighting": null,
      "size": null,
      "material": null
    },
    {
      "gid": "7703",
      "address": "133 МКАД , 23-й км (пересечение с ул. Казинца) №1",
      "name": "А",
      "lon": 27.503981427170057,
      "lat": 53.83890424618963,
      "construction_format": "Билборды",
      "display_type": "Статика",
      "lighting": null,
      "size": null,
      "material": null
    },
    {
      "gid": "7703",
      "address": "133 МКАД , 23-й км (пересечение с ул. Казинца) №1",
      "name": "В",
      "lon": 27.503981427170057,
      "lat": 53.83890424618963,
      "construction_format": "Билборды",
      "display_type": "Статика",
      "lighting": null,
      "size": null,
      "material": null
    },
    {
      "gid": "7704",
      "address": "134 МКАД , 23-й км (пересечение с ул. Казинца) №2",
      "name": "А",
      "lon": 27.501468955027875,
      "lat": 53.83918161363692,
      "construction_format": "Билборды",
      "display_type": "Статика",
      "lighting": null,
      "size": null,
      "material": null
    },
    {
      "gid": "7704",
      "address": "134 МКАД , 23-й км (пересечение с ул. Казинца) №2",
      "name": "В",
      "lon": 27.501468955027875,
      "lat": 53.83918161363692,
      "construction_format": "Билборды",
      "display_type": "Статика",
      "lighting": null,
      "size": null,
      "material": null
    },
    {
      "gid": "7705",
      "address": "135 Ул. Притыцкого, 101 (ТЦ Материк)",
      "name": "А",
      "lon": 27.433490637318204,
      "lat": 53.906406531432125,
      "construction_format": "Билборды",
      "display_type": "Статика",
      "lighting": null,
      "size": null,
      "material": null
    },
    {
      "gid": "7706",
      "address": "136 Ул. Притыцкого, 101 (ТЦ Материк)",
      "name": "А",
      "lon": 27.433584950197986,
      "lat": 53.90486103228995,
      "construction_format": "Билборды",
      "display_type": "Статика",
      "lighting": null,
      "size": null,
      "material": null
    },
    {
      "gid": "7707",
      "address": "137 Ул. Бабушкина, 8А",
      "name": "А",
      "lon": 27.581922567025174,
      "lat": 53.818388510972156,
      "construction_format": "Билборды",
      "display_type": "Статика",
      "lighting": null,
      "size": null,
      "material": null
    },
    {
      "gid": "7707",
      "address": "137 Ул. Бабушкина, 8А",
      "name": "В",
      "lon": 27.581922567025174,
      "lat": 53.818388510972156,
      "construction_format": "Билборды",
      "display_type": "Статика",
      "lighting": null,
      "size": null,
      "material": null
    },
    {
      "gid": "7708",
      "address": "138 Пр-т Партизанский, 172",
      "name": "А",
      "lon": 27.688378079899078,
      "lat": 53.85622282017233,
      "construction_format": "Билборды",
      "display_type": "Статика",
      "lighting": null,
      "size": null,
      "material": null
    },
    {
      "gid": "7709",
      "address": "139 МКАД, 23-й км, пересечение с ул.Казинца",
      "name": "А",
      "lon": 27.573563856962835,
      "lat": 53.83287330922865,
      "construction_format": "Билборды",
      "display_type": "Статика",
      "lighting": null,
      "size": null,
      "material": null
    },
    {
      "gid": "7709",
      "address": "139 МКАД, 23-й км, пересечение с ул.Казинца",
      "name": "В",
      "lon": 27.573563856962835,
      "lat": 53.83287330922865,
      "construction_format": "Билборды",
      "display_type": "Статика",
      "lighting": null,
      "size": null,
      "material": null
    },
    {
      "gid": "7594",
      "address": "А ул. Тимирязева, 121-3",
      "name": "А",
      "lon": 27.46045901,
      "lat": 53.93261553,
      "construction_format": "Билборды",
      "display_type": "Статика",
      "lighting": null,
      "size": null,
      "material": null
    },
    {
      "gid": "7594",
      "address": "А ул. Тимирязева, 121-3",
      "name": "В",
      "lon": 27.46045901,
      "lat": 53.93261553,
      "construction_format": "Билборды",
      "display_type": "Статика",
      "lighting": null,
      "size": null,
      "material": null
    },
    {
      "gid": "7559",
      "address": "14. Биллборд м на ул. Брыля (2)",
      "name": "А",
      "lon": 27.47918223,
      "lat": 53.87683695,
      "construction_format": "Билборды",
      "display_type": "Статика",
      "lighting": null,
      "size": "6x3",
      "material": null
    },
    {
      "gid": "7559",
      "address": "14. Биллборд м на ул. Брыля (2)",
      "name": "В",
      "lon": 27.47918223,
      "lat": 53.87683695,
      "construction_format": "Билборды",
      "display_type": "Статика",
      "lighting": null,
      "size": "6x3",
      "material": null
    },
    {
      "gid": "9986",
      "address": "14 ул. Минская-ул. Крылова",
      "name": "В",
      "lon": 29.215486,
      "lat": 53.157496,
      "construction_format": "Билборды",
      "display_type": "Статика",
      "lighting": null,
      "size": null,
      "material": null
    },
    {
      "gid": "7710",
      "address": "140 Ул. Притыцкого, 156",
      "name": "А",
      "lon": 27.43172559369997,
      "lat": 53.90739396391439,
      "construction_format": "Билборды",
      "display_type": "Статика",
      "lighting": null,
      "size": null,
      "material": null
    },
    {
      "gid": "7711",
      "address": "141 Ул. Пушкина, 69",
      "name": "А",
      "lon": 27.49492106160957,
      "lat": 53.91705523709252,
      "construction_format": "Билборды",
      "display_type": "Статика",
      "lighting": null,
      "size": null,
      "material": null
    },
    {
      "gid": "7711",
      "address": "141 Ул. Пушкина, 69",
      "name": "В",
      "lon": 27.49492106160957,
      "lat": 53.91705523709252,
      "construction_format": "Билборды",
      "display_type": "Статика",
      "lighting": null,
      "size": null,
      "material": null
    },
    {
      "gid": "7712",
      "address": "142 МКАД, 21-й км, пересечение с ул. Кижеватова",
      "name": "А",
      "lon": 27.532542662220028,
      "lat": 53.83523217575609,
      "construction_format": "Билборды",
      "display_type": "Статика",
      "lighting": null,
      "size": null,
      "material": null
    },
    {
      "gid": "7712",
      "address": "142 МКАД, 21-й км, пересечение с ул. Кижеватова",
      "name": "В",
      "lon": 27.532542662220028,
      "lat": 53.83523217575609,
      "construction_format": "Билборды",
      "display_type": "Статика",
      "lighting": null,
      "size": null,
      "material": null
    },
    {
      "gid": "7713",
      "address": "143 Ул. Кижеватова, 86",
      "name": "А",
      "lon": 27.53282302824275,
      "lat": 53.84016645110027,
      "construction_format": "Билборды",
      "display_type": "Статика",
      "lighting": null,
      "size": null,
      "material": null
    },
    {
      "gid": "7713",
      "address": "143 Ул. Кижеватова, 86",
      "name": "В",
      "lon": 27.53282302824275,
      "lat": 53.84016645110027,
      "construction_format": "Билборды",
      "display_type": "Статика",
      "lighting": null,
      "size": null,
      "material": null
    },
    {
      "gid": "7714",
      "address": "144 Пр-т-Партизанский, 179",
      "name": "А",
      "lon": 27.69622122533604,
      "lat": 53.85300926387775,
      "construction_format": "Билборды",
      "display_type": "Статика",
      "lighting": null,
      "size": null,
      "material": null
    },
    {
      "gid": "7715",
      "address": "145 Пр-т Партизанский, 182",
      "name": "А",
      "lon": 27.703055429926366,
      "lat": 53.84907239538544,
      "construction_format": "Билборды",
      "display_type": "Статика",
      "lighting": null,
      "size": null,
      "material": null
    },
    {
      "gid": "7715",
      "address": "145 Пр-т Партизанский, 182",
      "name": "В",
      "lon": 27.703055429926366,
      "lat": 53.84907239538544,
      "construction_format": "Билборды",
      "display_type": "Статика",
      "lighting": null,
      "size": null,
      "material": null
    },
    {
      "gid": "7716",
      "address": "146 Ул. Кижеватова (въезд в город)",
      "name": "А",
      "lon": 27.53348708823354,
      "lat": 53.83750355510294,
      "construction_format": "Билборды",
      "display_type": "Статика",
      "lighting": null,
      "size": null,
      "material": null
    },
    {
      "gid": "7717",
      "address": "147 МКАД, 44-й км, дер. Зацень",
      "name": "А",
      "lon": 27.506412280328625,
      "lat": 53.96852204750282,
      "construction_format": "Билборды",
      "display_type": "Статика",
      "lighting": null,
      "size": null,
      "material": null
    },
    {
      "gid": "7717",
      "address": "147 МКАД, 44-й км, дер. Зацень",
      "name": "В",
      "lon": 27.506412280328625,
      "lat": 53.96852204750282,
      "construction_format": "Билборды",
      "display_type": "Статика",
      "lighting": null,
      "size": null,
      "material": null
    },
    {
      "gid": "7718",
      "address": "148 Ул. Горецкого, 2",
      "name": "А",
      "lon": 27.46400997704357,
      "lat": 53.8756329328447,
      "construction_format": "Билборды",
      "display_type": "Статика",
      "lighting": null,
      "size": null,
      "material": null
    },
    {
      "gid": "7718",
      "address": "148 Ул. Горецкого, 2",
      "name": "В",
      "lon": 27.46400997704357,
      "lat": 53.8756329328447,
      "construction_format": "Билборды",
      "display_type": "Статика",
      "lighting": null,
      "size": null,
      "material": null
    },
    {
      "gid": "7719",
      "address": "149 Ул. Богдановича,116",
      "name": "А",
      "lon": 27.58146433924,
      "lat": 53.93535603686567,
      "construction_format": "Билборды",
      "display_type": "Статика",
      "lighting": null,
      "size": null,
      "material": null
    },
    {
      "gid": "7560",
      "address": "15. Биллборд м наул. Брыля (3),",
      "name": "А",
      "lon": 27.4781721,
      "lat": 53.87610624,
      "construction_format": "Билборды",
      "display_type": "Статика",
      "lighting": null,
      "size": "6x3",
      "material": null
    },
    {
      "gid": "7560",
      "address": "15. Биллборд м наул. Брыля (3),",
      "name": "В",
      "lon": 27.4781721,
      "lat": 53.87610624,
      "construction_format": "Билборды",
      "display_type": "Статика",
      "lighting": null,
      "size": "6x3",
      "material": null
    },
    {
      "gid": "9987",
      "address": "15 ул. Минская-ул.Октябрьская",
      "name": "А",
      "lon": 29.224903,
      "lat": 53.151264,
      "construction_format": "Билборды",
      "display_type": "Статика",
      "lighting": null,
      "size": null,
      "material": null
    },
    {
      "gid": "7720",
      "address": "150 МКАД, 33-й км, пересечение с ул. Мазурова (внешняя сторона МКАД)",
      "name": "А",
      "lon": 27.40968160358588,
      "lat": 53.8950597686306,
      "construction_format": "Билборды",
      "display_type": "Статика",
      "lighting": null,
      "size": null,
      "material": null
    },
    {
      "gid": "7720",
      "address": "150 МКАД, 33-й км, пересечение с ул. Мазурова (внешняя сторона МКАД)",
      "name": "В",
      "lon": 27.40968160358588,
      "lat": 53.8950597686306,
      "construction_format": "Билборды",
      "display_type": "Статика",
      "lighting": null,
      "size": null,
      "material": null
    },
    {
      "gid": "7721",
      "address": "151 МКАД, 24-й км, пересечение с ул. Курчатова",
      "name": "А",
      "lon": 27.479695182556167,
      "lat": 53.8409431545283,
      "construction_format": "Билборды",
      "display_type": "Статика",
      "lighting": null,
      "size": null,
      "material": null
    },
    {
      "gid": "7721",
      "address": "151 МКАД, 24-й км, пересечение с ул. Курчатова",
      "name": "В",
      "lon": 27.479695182556167,
      "lat": 53.8409431545283,
      "construction_format": "Билборды",
      "display_type": "Статика",
      "lighting": null,
      "size": null,
      "material": null
    },
    {
      "gid": "7722",
      "address": "152 Ул. Уманская, 57",
      "name": "А",
      "lon": 27.497657342295152,
      "lat": 53.87611309116144,
      "construction_format": "Билборды",
      "display_type": "Статика",
      "lighting": null,
      "size": null,
      "material": null
    },
    {
      "gid": "7722",
      "address": "152 Ул. Уманская, 57",
      "name": "В",
      "lon": 27.497657342295152,
      "lat": 53.87611309116144,
      "construction_format": "Билборды",
      "display_type": "Статика",
      "lighting": null,
      "size": null,
      "material": null
    },
    {
      "gid": "7723",
      "address": "153 Пр-т Партизанский – МКАД (развязка)",
      "name": "А",
      "lon": 27.67897954378866,
      "lat": 53.86029668454834,
      "construction_format": "Билборды",
      "display_type": "Статика",
      "lighting": null,
      "size": null,
      "material": null
    },
    {
      "gid": "7723",
      "address": "153 Пр-т Партизанский – МКАД (развязка)",
      "name": "В",
      "lon": 27.67897954378866,
      "lat": 53.86029668454834,
      "construction_format": "Билборды",
      "display_type": "Статика",
      "lighting": null,
      "size": null,
      "material": null
    },
    {
      "gid": "7724",
      "address": "154 Пр-т Партизанский, 104",
      "name": "А",
      "lon": 27.64774389983456,
      "lat": 53.869057646528276,
      "construction_format": "Билборды",
      "display_type": "Статика",
      "lighting": null,
      "size": null,
      "material": null
    },
    {
      "gid": "7724",
      "address": "154 Пр-т Партизанский, 104",
      "name": "В",
      "lon": 27.64774389983456,
      "lat": 53.869057646528276,
      "construction_format": "Билборды",
      "display_type": "Статика",
      "lighting": null,
      "size": null,
      "material": null
    },
    {
      "gid": "7725",
      "address": "155 Ул. Кижеватова – Ул. Серова",
      "name": "А",
      "lon": 27.534474929940856,
      "lat": 53.84324840217945,
      "construction_format": "Билборды",
      "display_type": "Статика",
      "lighting": null,
      "size": null,
      "material": null
    },
    {
      "gid": "7725",
      "address": "155 Ул. Кижеватова – Ул. Серова",
      "name": "В",
      "lon": 27.534474929940856,
      "lat": 53.84324840217945,
      "construction_format": "Билборды",
      "display_type": "Статика",
      "lighting": null,
      "size": null,
      "material": null
    },
    {
      "gid": "7726",
      "address": "156 МКАД, 25 км. (пересечение с пр. Дзержинского)",
      "name": "А",
      "lon": 27.4659239913573,
      "lat": 53.843106326615846,
      "construction_format": "Билборды",
      "display_type": "Статика",
      "lighting": null,
      "size": null,
      "material": null
    },
    {
      "gid": "7726",
      "address": "156 МКАД, 25 км. (пересечение с пр. Дзержинского)",
      "name": "В",
      "lon": 27.4659239913573,
      "lat": 53.843106326615846,
      "construction_format": "Билборды",
      "display_type": "Статика",
      "lighting": null,
      "size": null,
      "material": null
    },
    {
      "gid": "7727",
      "address": "157 Ул. Притыцкого – МКАД (развязка)",
      "name": "А",
      "lon": 27.41336822262301,
      "lat": 53.91051021062609,
      "construction_format": "Билборды",
      "display_type": "Статика",
      "lighting": null,
      "size": null,
      "material": null
    },
    {
      "gid": "7727",
      "address": "157 Ул. Притыцкого – МКАД (развязка)",
      "name": "В",
      "lon": 27.41336822262301,
      "lat": 53.91051021062609,
      "construction_format": "Билборды",
      "display_type": "Статика",
      "lighting": null,
      "size": null,
      "material": null
    },
    {
      "gid": "7728",
      "address": "158 Ул. Орловская, Сквер №2",
      "name": "А",
      "lon": 27.572693,
      "lat": 53.932191,
      "construction_format": "Билборды",
      "display_type": "Статика",
      "lighting": null,
      "size": null,
      "material": null
    },
    {
      "gid": "7729",
      "address": "159 Ул. Голубева, 16/1",
      "name": "А",
      "lon": 27.468531443267253,
      "lat": 53.86585488518197,
      "construction_format": "Билборды",
      "display_type": "Статика",
      "lighting": null,
      "size": null,
      "material": null
    },
    {
      "gid": "7729",
      "address": "159 Ул. Голубева, 16/1",
      "name": "В",
      "lon": 27.468531443267253,
      "lat": 53.86585488518197,
      "construction_format": "Билборды",
      "display_type": "Статика",
      "lighting": null,
      "size": null,
      "material": null
    },
    {
      "gid": "7561",
      "address": "16. Биллборд м, ул. Радиальная (1)",
      "name": "А",
      "lon": 27.65593535,
      "lat": 53.88206149,
      "construction_format": "Билборды",
      "display_type": "Статика",
      "lighting": null,
      "size": "6x3",
      "material": null
    },
    {
      "gid": "7561",
      "address": "16. Биллборд м, ул. Радиальная (1)",
      "name": "В",
      "lon": 27.65593535,
      "lat": 53.88206149,
      "construction_format": "Билборды",
      "display_type": "Статика",
      "lighting": null,
      "size": "6x3",
      "material": null
    },
    {
      "gid": "7730",
      "address": "160 МКАД 39 км",
      "name": "А",
      "lon": 27.43642890383641,
      "lat": 53.9445160769295,
      "construction_format": "Билборды",
      "display_type": "Статика",
      "lighting": null,
      "size": null,
      "material": null
    },
    {
      "gid": "7730",
      "address": "160 МКАД 39 км",
      "name": "В",
      "lon": 27.43642890383641,
      "lat": 53.9445160769295,
      "construction_format": "Билборды",
      "display_type": "Статика",
      "lighting": null,
      "size": null,
      "material": null
    },
    {
      "gid": "10296",
      "address": "161А Пр. Дзержинского (за мостом с ул. Алибегова)",
      "name": "А",
      "lon": 27.49418805752111,
      "lat": 53.87216248162447,
      "construction_format": "Билборды",
      "display_type": "Статика",
      "lighting": null,
      "size": null,
      "material": null
    },
    {
      "gid": "7562",
      "address": "17 Биллборд м, ул. Шаранговича (1)",
      "name": "А",
      "lon": 27.45830751,
      "lat": 53.89209319,
      "construction_format": "Билборды",
      "display_type": "Статика",
      "lighting": null,
      "size": "6x3",
      "material": null
    },
    {
      "gid": "7562",
      "address": "17 Биллборд м, ул. Шаранговича (1)",
      "name": "В",
      "lon": 27.45830751,
      "lat": 53.89209319,
      "construction_format": "Билборды",
      "display_type": "Статика",
      "lighting": null,
      "size": "6x3",
      "material": null
    },
    {
      "gid": "9988",
      "address": "17 ул. Урицкого-ул. Садовая",
      "name": "А",
      "lon": 29.246146,
      "lat": 53.149963,
      "construction_format": "Билборды",
      "display_type": "Статика",
      "lighting": null,
      "size": null,
      "material": null
    },
    {
      "gid": "7596",
      "address": "17А ул. Ленина",
      "name": "А",
      "lon": 27.57103769,
      "lat": 53.89375826,
      "construction_format": "Билборды",
      "display_type": "Статика",
      "lighting": null,
      "size": null,
      "material": null
    },
    {
      "gid": "7596",
      "address": "17А ул. Ленина",
      "name": "В",
      "lon": 27.57103769,
      "lat": 53.89375826,
      "construction_format": "Билборды",
      "display_type": "Статика",
      "lighting": null,
      "size": null,
      "material": null
    },
    {
      "gid": "9989",
      "address": "18-19 ул. Минская РТИ",
      "name": "А",
      "lon": 29.210095,
      "lat": 53.163631,
      "construction_format": "Билборды",
      "display_type": "Статика",
      "lighting": null,
      "size": null,
      "material": null
    },
    {
      "gid": "9989",
      "address": "18-19 ул. Минская РТИ",
      "name": "В",
      "lon": 29.210095,
      "lat": 53.163631,
      "construction_format": "Билборды",
      "display_type": "Статика",
      "lighting": null,
      "size": null,
      "material": null
    },
    {
      "gid": "7563",
      "address": "18. Биллборд м ул. Шаранговича (2)",
      "name": "А",
      "lon": 27.45718671,
      "lat": 53.89154992,
      "construction_format": "Билборды",
      "display_type": "Статика",
      "lighting": null,
      "size": "6x3",
      "material": null
    },
    {
      "gid": "7563",
      "address": "18. Биллборд м ул. Шаранговича (2)",
      "name": "В",
      "lon": 27.45718671,
      "lat": 53.89154992,
      "construction_format": "Билборды",
      "display_type": "Статика",
      "lighting": null,
      "size": "6x3",
      "material": null
    },
    {
      "gid": "7597",
      "address": "ул. Притыцкого - ул. Якубовского",
      "name": "А",
      "lon": 27.45363336,
      "lat": 53.90580445,
      "construction_format": "Билборды",
      "display_type": "Статика",
      "lighting": null,
      "size": null,
      "material": null
    },
    {
      "gid": "7564",
      "address": "19. Биллборд № м, пр.Победителей (418 м от МКАД)",
      "name": "А",
      "lon": 27.45081886,
      "lat": 53.94876198,
      "construction_format": "Нетиповые форматы",
      "display_type": "Статика",
      "lighting": null,
      "size": "112x3",
      "material": null
    },
    {
      "gid": "7564",
      "address": "19. Биллборд № м, пр.Победителей (418 м от МКАД)",
      "name": "В",
      "lon": 27.45081886,
      "lat": 53.94876198,
      "construction_format": "Нетиповые форматы",
      "display_type": "Статика",
      "lighting": null,
      "size": "112x3",
      "material": null
    },
    {
      "gid": "7598",
      "address": "А-пр. Газеты Звязда, 16",
      "name": "А",
      "lon": 27.46863082,
      "lat": 53.86516212,
      "construction_format": "Билборды",
      "display_type": "Статика",
      "lighting": null,
      "size": null,
      "material": null
    },
    {
      "gid": "7598",
      "address": "А-пр. Газеты Звязда, 16",
      "name": "В",
      "lon": 27.46863082,
      "lat": 53.86516212,
      "construction_format": "Билборды",
      "display_type": "Статика",
      "lighting": null,
      "size": null,
      "material": null
    },
    {
      "gid": "7547",
      "address": "2. Биллборд м напр.Независимости, 191б (2)",
      "name": "А",
      "lon": 27.70283195,
      "lat": 53.95028343,
      "construction_format": "Билборды",
      "display_type": "Статика",
      "lighting": null,
      "size": "6x3",
      "material": null
    },
    {
      "gid": "7547",
      "address": "2. Биллборд м напр.Независимости, 191б (2)",
      "name": "В",
      "lon": 27.70283195,
      "lat": 53.95028343,
      "construction_format": "Билборды",
      "display_type": "Статика",
      "lighting": null,
      "size": "6x3",
      "material": null
    },
    {
      "gid": "8830",
      "address": "г. Мядель ул. Юбилейная",
      "name": "А",
      "lon": 26.922257707466347,
      "lat": 54.88615572690419,
      "construction_format": "Билборды",
      "display_type": "Статика",
      "lighting": null,
      "size": null,
      "material": null
    },
    {
      "gid": "8830",
      "address": "г. Мядель ул. Юбилейная",
      "name": "В",
      "lon": 26.922257707466347,
      "lat": 54.88615572690419,
      "construction_format": "Билборды",
      "display_type": "Статика",
      "lighting": null,
      "size": null,
      "material": null
    },
    {
      "gid": "8124",
      "address": "2 Космонавтов пр. и ул.Ефремова (корпус «Медицинского Университета»)",
      "name": "А",
      "lon": 30.959714568946396,
      "lat": 52.45539411671671,
      "construction_format": "Билборды",
      "display_type": "Статика",
      "lighting": null,
      "size": null,
      "material": null
    },
    {
      "gid": "9990",
      "address": "20-21 ул. Минская (Евроопт)",
      "name": "А",
      "lon": 29.207642,
      "lat": 53.166421,
      "construction_format": "Билборды",
      "display_type": "Статика",
      "lighting": null,
      "size": null,
      "material": null
    },
    {
      "gid": "9990",
      "address": "20-21 ул. Минская (Евроопт)",
      "name": "В",
      "lon": 29.207642,
      "lat": 53.166421,
      "construction_format": "Билборды",
      "display_type": "Статика",
      "lighting": null,
      "size": null,
      "material": null
    },
    {
      "gid": "7565",
      "address": "20. Биллборд №2 м, пр. Победителей (538 м от МКАД)",
      "name": "А",
      "lon": 27.45231467,
      "lat": 53.94811695,
      "construction_format": "Нетиповые форматы",
      "display_type": "Статика",
      "lighting": null,
      "size": "12x3",
      "material": null
    },
    {
      "gid": "7565",
      "address": "20. Биллборд №2 м, пр. Победителей (538 м от МКАД)",
      "name": "В",
      "lon": 27.45231467,
      "lat": 53.94811695,
      "construction_format": "Нетиповые форматы",
      "display_type": "Статика",
      "lighting": null,
      "size": "12x3",
      "material": null
    },
    {
      "gid": "7599",
      "address": "Б ул. Слободская,79-1",
      "name": "А",
      "lon": 27.43748666,
      "lat": 53.8508903,
      "construction_format": "Билборды",
      "display_type": "Статика",
      "lighting": null,
      "size": null,
      "material": null
    },
    {
      "gid": "7566",
      "address": "21. Биллборд № м , пр. Победителей (690 м от МКАД)",
      "name": "А",
      "lon": 27.45414579,
      "lat": 53.94728202,
      "construction_format": "Нетиповые форматы",
      "display_type": "Статика",
      "lighting": null,
      "size": "312x3",
      "material": null
    },
    {
      "gid": "7566",
      "address": "21. Биллборд № м , пр. Победителей (690 м от МКАД)",
      "name": "В",
      "lon": 27.45414579,
      "lat": 53.94728202,
      "construction_format": "Нетиповые форматы",
      "display_type": "Статика",
      "lighting": null,
      "size": "312x3",
      "material": null
    },
    {
      "gid": "7600",
      "address": "А ул. Слободская,79-2",
      "name": "А",
      "lon": 27.43788578,
      "lat": 53.85066375,
      "construction_format": "Билборды",
      "display_type": "Статика",
      "lighting": null,
      "size": null,
      "material": null
    },
    {
      "gid": "7600",
      "address": "А ул. Слободская,79-2",
      "name": "В",
      "lon": 27.43788578,
      "lat": 53.85066375,
      "construction_format": "Билборды",
      "display_type": "Статика",
      "lighting": null,
      "size": null,
      "material": null
    },
    {
      "gid": "7567",
      "address": "22. Биллборд №4 м , пр. Победителей (939 м от МКАД)",
      "name": "А",
      "lon": 27.45713421,
      "lat": 53.94588246,
      "construction_format": "Нетиповые форматы",
      "display_type": "Статика",
      "lighting": null,
      "size": "12x3",
      "material": null
    },
    {
      "gid": "7567",
      "address": "22. Биллборд №4 м , пр. Победителей (939 м от МКАД)",
      "name": "В",
      "lon": 27.45713421,
      "lat": 53.94588246,
      "construction_format": "Нетиповые форматы",
      "display_type": "Статика",
      "lighting": null,
      "size": "12x3",
      "material": null
    },
    {
      "gid": "7601",
      "address": "А, ул. Слободская, 79-2",
      "name": "А",
      "lon": 27.43867283,
      "lat": 53.85028086,
      "construction_format": "Билборды",
      "display_type": "Статика",
      "lighting": null,
      "size": null,
      "material": null
    },
    {
      "gid": "7601",
      "address": "А, ул. Слободская, 79-2",
      "name": "В",
      "lon": 27.43867283,
      "lat": 53.85028086,
      "construction_format": "Билборды",
      "display_type": "Статика",
      "lighting": null,
      "size": null,
      "material": null
    },
    {
      "gid": "7568",
      "address": "23. Биллборд №5 м , пр. Победителей (85 м от ул. Ратомской в сторону МКАД)",
      "name": "А",
      "lon": 27.45966547,
      "lat": 53.944741,
      "construction_format": "Нетиповые форматы",
      "display_type": "Статика",
      "lighting": null,
      "size": "12x3",
      "material": null
    },
    {
      "gid": "7568",
      "address": "23. Биллборд №5 м , пр. Победителей (85 м от ул. Ратомской в сторону МКАД)",
      "name": "В",
      "lon": 27.45966547,
      "lat": 53.944741,
      "construction_format": "Нетиповые форматы",
      "display_type": "Статика",
      "lighting": null,
      "size": "12x3",
      "material": null
    },
    {
      "gid": "7569",
      "address": "24. Биллборд №6 м , пр. Победителей - ул. Ратомская",
      "name": "А",
      "lon": 27.46114591,
      "lat": 53.94389645,
      "construction_format": "Нетиповые форматы",
      "display_type": "Статика",
      "lighting": null,
      "size": "12x3",
      "material": null
    },
    {
      "gid": "7786",
      "address": "24. ул.Дубко",
      "name": "А",
      "lon": 23.832797335237164,
      "lat": 53.700744620739925,
      "construction_format": "Билборды",
      "display_type": "Статика",
      "lighting": null,
      "size": null,
      "material": null
    },
    {
      "gid": "7786",
      "address": "24. ул.Дубко",
      "name": "В",
      "lon": 23.832797335237164,
      "lat": 53.700744620739925,
      "construction_format": "Билборды",
      "display_type": "Статика",
      "lighting": null,
      "size": null,
      "material": null
    },
    {
      "gid": "7570",
      "address": "25. Биллборд №7 м , пр. Победителей 218 м от оси улицы Ратомской",
      "name": "А",
      "lon": 27.461795,
      "lat": 53.94375878,
      "construction_format": "Нетиповые форматы",
      "display_type": "Статика",
      "lighting": null,
      "size": "12x3",
      "material": null
    },
    {
      "gid": "7570",
      "address": "25. Биллборд №7 м , пр. Победителей 218 м от оси улицы Ратомской",
      "name": "В",
      "lon": 27.461795,
      "lat": 53.94375878,
      "construction_format": "Нетиповые форматы",
      "display_type": "Статика",
      "lighting": null,
      "size": "12x3",
      "material": null
    },
    {
      "gid": "10267",
      "address": "25. ул.Дубко",
      "name": "А",
      "lon": 23.83282952174535,
      "lat": 53.70110114333673,
      "construction_format": "Билборды",
      "display_type": "Статика",
      "lighting": null,
      "size": null,
      "material": null
    },
    {
      "gid": "10267",
      "address": "25. ул.Дубко",
      "name": "В",
      "lon": 23.83282952174535,
      "lat": 53.70110114333673,
      "construction_format": "Билборды",
      "display_type": "Статика",
      "lighting": null,
      "size": null,
      "material": null
    },
    {
      "gid": "7602",
      "address": "А пр. Олимпийский, 1",
      "name": "А",
      "lon": 27.42893324,
      "lat": 53.8511028,
      "construction_format": "Билборды",
      "display_type": "Статика",
      "lighting": null,
      "size": null,
      "material": null
    },
    {
      "gid": "7602",
      "address": "А пр. Олимпийский, 1",
      "name": "В",
      "lon": 27.42893324,
      "lat": 53.8511028,
      "construction_format": "Билборды",
      "display_type": "Статика",
      "lighting": null,
      "size": null,
      "material": null
    },
    {
      "gid": "7571",
      "address": "26. Биллборд №8 м , пр. Победителей 432 м от ул. Ратомской",
      "name": "А",
      "lon": 27.46323702,
      "lat": 53.94311497,
      "construction_format": "Нетиповые форматы",
      "display_type": "Статика",
      "lighting": null,
      "size": "12x3",
      "material": null
    },
    {
      "gid": "7571",
      "address": "26. Биллборд №8 м , пр. Победителей 432 м от ул. Ратомской",
      "name": "В",
      "lon": 27.46323702,
      "lat": 53.94311497,
      "construction_format": "Нетиповые форматы",
      "display_type": "Статика",
      "lighting": null,
      "size": "12x3",
      "material": null
    },
    {
      "gid": "7603",
      "address": "пр. Олимпийский, 2",
      "name": "А",
      "lon": 27.42831433,
      "lat": 53.85237833,
      "construction_format": "Билборды",
      "display_type": "Статика",
      "lighting": null,
      "size": null,
      "material": null
    },
    {
      "gid": "9991",
      "address": "26 ул. Минская - Гагарина",
      "name": "А",
      "lon": 29.198724,
      "lat": 53.176925,
      "construction_format": "Билборды",
      "display_type": "Статика",
      "lighting": null,
      "size": null,
      "material": null
    },
    {
      "gid": "9992",
      "address": "27-28 ул. Минская (Евроопт)",
      "name": "А",
      "lon": 29.207908,
      "lat": 53.166089,
      "construction_format": "Билборды",
      "display_type": "Статика",
      "lighting": null,
      "size": null,
      "material": null
    },
    {
      "gid": "9992",
      "address": "27-28 ул. Минская (Евроопт)",
      "name": "В",
      "lon": 29.207908,
      "lat": 53.166089,
      "construction_format": "Билборды",
      "display_type": "Статика",
      "lighting": null,
      "size": null,
      "material": null
    },
    {
      "gid": "7572",
      "address": "27. Биллборд №9 м , пр. Победителей 560 м от ул. Ратомской",
      "name": "А",
      "lon": 27.46613609,
      "lat": 53.94176926,
      "construction_format": "Нетиповые форматы",
      "display_type": "Статика",
      "lighting": null,
      "size": "12x3",
      "material": null
    },
    {
      "gid": "7572",
      "address": "27. Биллборд №9 м , пр. Победителей 560 м от ул. Ратомской",
      "name": "В",
      "lon": 27.46613609,
      "lat": 53.94176926,
      "construction_format": "Нетиповые форматы",
      "display_type": "Статика",
      "lighting": null,
      "size": "12x3",
      "material": null
    },
    {
      "gid": "7604",
      "address": "пр. Олимпийский, 3",
      "name": "А",
      "lon": 27.42797569,
      "lat": 53.85306215,
      "construction_format": "Билборды",
      "display_type": "Статика",
      "lighting": null,
      "size": null,
      "material": null
    },
    {
      "gid": "7573",
      "address": "28. Биллборд №10 пр. Победителей 642 м от ул. Нарочанской",
      "name": "А",
      "lon": 27.47070874,
      "lat": 53.93969799,
      "construction_format": "Нетиповые форматы",
      "display_type": "Статика",
      "lighting": null,
      "size": null,
      "material": null
    },
    {
      "gid": "7573",
      "address": "28. Биллборд №10 пр. Победителей 642 м от ул. Нарочанской",
      "name": "В",
      "lon": 27.47070874,
      "lat": 53.93969799,
      "construction_format": "Нетиповые форматы",
      "display_type": "Статика",
      "lighting": null,
      "size": null,
      "material": null
    },
    {
      "gid": "9825",
      "address": "28 июля - мост через р. Мухавец по стороне Гребного Канала",
      "name": "А",
      "lon": 23.736576702406186,
      "lat": 52.083786235424384,
      "construction_format": "Билборды",
      "display_type": "Статика",
      "lighting": null,
      "size": null,
      "material": null
    },
    {
      "gid": "9825",
      "address": "28 июля - мост через р. Мухавец по стороне Гребного Канала",
      "name": "В",
      "lon": 23.736576702406186,
      "lat": 52.083786235424384,
      "construction_format": "Билборды",
      "display_type": "Статика",
      "lighting": null,
      "size": null,
      "material": null
    },
    {
      "gid": "9799",
      "address": "28 Июля (поворот на супермаркет \"Мiкс\")",
      "name": "А",
      "lon": 23.74087,
      "lat": 52.076504,
      "construction_format": "Билборды",
      "display_type": "Статика",
      "lighting": null,
      "size": null,
      "material": null
    },
    {
      "gid": "9799",
      "address": "28 Июля (поворот на супермаркет \"Мiкс\")",
      "name": "В",
      "lon": 23.74087,
      "lat": 52.076504,
      "construction_format": "Билборды",
      "display_type": "Статика",
      "lighting": null,
      "size": null,
      "material": null
    },
    {
      "gid": "9749",
      "address": "28 Июля супермаркет \"Мiкс\"",
      "name": "А",
      "lon": 23.739258,
      "lat": 52.078695,
      "construction_format": "Билборды",
      "display_type": "Статика",
      "lighting": null,
      "size": null,
      "material": null
    },
    {
      "gid": "9749",
      "address": "28 Июля супермаркет \"Мiкс\"",
      "name": "В",
      "lon": 23.739258,
      "lat": 52.078695,
      "construction_format": "Билборды",
      "display_type": "Статика",
      "lighting": null,
      "size": null,
      "material": null
    },
    {
      "gid": "7210",
      "address": "28 июля ул. - Октябрьской революции",
      "name": "А",
      "lon": 23.738476079576007,
      "lat": 52.08080372948468,
      "construction_format": "Билборды",
      "display_type": "Статика",
      "lighting": null,
      "size": null,
      "material": null
    },
    {
      "gid": "7210",
      "address": "28 июля ул. - Октябрьской революции",
      "name": "В",
      "lon": 23.738476079576007,
      "lat": 52.08080372948468,
      "construction_format": "Билборды",
      "display_type": "Статика",
      "lighting": null,
      "size": null,
      "material": null
    },
    {
      "gid": "9766",
      "address": "28 Июля (возле АЗС \"А100\")",
      "name": "А",
      "lon": 23.73870473743421,
      "lat": 52.078800453354546,
      "construction_format": "Билборды",
      "display_type": "Статика",
      "lighting": null,
      "size": null,
      "material": null
    },
    {
      "gid": "9766",
      "address": "28 Июля (возле АЗС \"А100\")",
      "name": "В",
      "lon": 23.73870473743421,
      "lat": 52.078800453354546,
      "construction_format": "Билборды",
      "display_type": "Статика",
      "lighting": null,
      "size": null,
      "material": null
    },
    {
      "gid": "7605",
      "address": "Ул. Мирошниченко, БИГЗ",
      "name": "А",
      "lon": 27.619020595619528,
      "lat": 53.96323898556949,
      "construction_format": "Билборды",
      "display_type": "Статика",
      "lighting": null,
      "size": null,
      "material": null
    },
    {
      "gid": "7605",
      "address": "Ул. Мирошниченко, БИГЗ",
      "name": "В",
      "lon": 27.619020595619528,
      "lat": 53.96323898556949,
      "construction_format": "Билборды",
      "display_type": "Статика",
      "lighting": null,
      "size": null,
      "material": null
    },
    {
      "gid": "9993",
      "address": "29-30ул. Минская (Евроопт)",
      "name": "А",
      "lon": 29.208362,
      "lat": 53.165549,
      "construction_format": "Билборды",
      "display_type": "Статика",
      "lighting": null,
      "size": null,
      "material": null
    },
    {
      "gid": "9993",
      "address": "29-30ул. Минская (Евроопт)",
      "name": "В",
      "lon": 29.208362,
      "lat": 53.165549,
      "construction_format": "Билборды",
      "display_type": "Статика",
      "lighting": null,
      "size": null,
      "material": null
    },
    {
      "gid": "7574",
      "address": "29. Биллборд №11 м, пр. Победителей 418 м от ул. Нарочанской",
      "name": "А",
      "lon": 27.47366264,
      "lat": 53.93864736,
      "construction_format": "Нетиповые форматы",
      "display_type": "Статика",
      "lighting": null,
      "size": "12x3",
      "material": null
    },
    {
      "gid": "7574",
      "address": "29. Биллборд №11 м, пр. Победителей 418 м от ул. Нарочанской",
      "name": "В",
      "lon": 27.47366264,
      "lat": 53.93864736,
      "construction_format": "Нетиповые форматы",
      "display_type": "Статика",
      "lighting": null,
      "size": "12x3",
      "material": null
    },
    {
      "gid": "9982",
      "address": "3-4 Ул. Минская",
      "name": "А",
      "lon": 29.19892,
      "lat": 53.177435,
      "construction_format": "Билборды",
      "display_type": "Статика",
      "lighting": null,
      "size": null,
      "material": null
    },
    {
      "gid": "9982",
      "address": "3-4 Ул. Минская",
      "name": "В",
      "lon": 29.19892,
      "lat": 53.177435,
      "construction_format": "Билборды",
      "display_type": "Статика",
      "lighting": null,
      "size": null,
      "material": null
    },
    {
      "gid": "7548",
      "address": "3. Биллборд м напр. Независимости, 200 (до АЗС) выезд из города на аэропорт Минск-2",
      "name": "А",
      "lon": 27.71303078,
      "lat": 53.95307178,
      "construction_format": "Нетиповые форматы",
      "display_type": "Статика",
      "lighting": null,
      "size": "12x3",
      "material": null
    },
    {
      "gid": "7548",
      "address": "3. Биллборд м напр. Независимости, 200 (до АЗС) выезд из города на аэропорт Минск-2",
      "name": "В",
      "lon": 27.71303078,
      "lat": 53.95307178,
      "construction_format": "Нетиповые форматы",
      "display_type": "Статика",
      "lighting": null,
      "size": "12x3",
      "material": null
    },
    {
      "gid": "8125",
      "address": "3 Космонавтов пр. и Ефремова ул.",
      "name": "А",
      "lon": 30.960224188659236,
      "lat": 52.455502262335735,
      "construction_format": "Билборды",
      "display_type": "Статика",
      "lighting": null,
      "size": null,
      "material": null
    },
    {
      "gid": "8831",
      "address": "Р-28 в Г. Мяделе около Евроопта",
      "name": "А",
      "lon": 26.935093150253056,
      "lat": 54.86828898612367,
      "construction_format": "Билборды",
      "display_type": "Статика",
      "lighting": null,
      "size": null,
      "material": null
    },
    {
      "gid": "8831",
      "address": "Р-28 в Г. Мяделе около Евроопта",
      "name": "В",
      "lon": 26.935093150253056,
      "lat": 54.86828898612367,
      "construction_format": "Билборды",
      "display_type": "Статика",
      "lighting": null,
      "size": null,
      "material": null
    },
    {
      "gid": "7575",
      "address": "30. Биллборд №12 пр. Победителей 188 м от ул. Нарочанской,",
      "name": "А",
      "lon": 27.47628506,
      "lat": 53.93799989,
      "construction_format": "Нетиповые форматы",
      "display_type": "Статика",
      "lighting": null,
      "size": null,
      "material": null
    },
    {
      "gid": "7575",
      "address": "30. Биллборд №12 пр. Победителей 188 м от ул. Нарочанской,",
      "name": "В",
      "lon": 27.47628506,
      "lat": 53.93799989,
      "construction_format": "Нетиповые форматы",
      "display_type": "Статика",
      "lighting": null,
      "size": null,
      "material": null
    },
    {
      "gid": "7576",
      "address": "31. Биллборд ул. Тимирязева - ул. Ратомская",
      "name": "А",
      "lon": 27.45019465,
      "lat": 53.93639847,
      "construction_format": "Нетиповые форматы",
      "display_type": "Статика",
      "lighting": null,
      "size": null,
      "material": null
    },
    {
      "gid": "9994",
      "address": "31 ул. Минская - ул. Шмидта",
      "name": "А",
      "lon": 29.218214,
      "lat": 53.156382,
      "construction_format": "Билборды",
      "display_type": "Статика",
      "lighting": null,
      "size": null,
      "material": null
    },
    {
      "gid": "7577",
      "address": "32. Биллборд м ул. Ратомская - ул. Мястровская",
      "name": "А1",
      "lon": 27.45788862,
      "lat": 53.9413907,
      "construction_format": "Нетиповые форматы",
      "display_type": "Статика",
      "lighting": null,
      "size": "6x3",
      "material": null
    },
    {
      "gid": "7577",
      "address": "32. Биллборд м ул. Ратомская - ул. Мястровская",
      "name": "В",
      "lon": 27.45788862,
      "lat": 53.9413907,
      "construction_format": "Нетиповые форматы",
      "display_type": "Статика",
      "lighting": null,
      "size": "6x3",
      "material": null
    },
    {
      "gid": "7577",
      "address": "32. Биллборд м ул. Ратомская - ул. Мястровская",
      "name": "А2",
      "lon": 27.45788862,
      "lat": 53.9413907,
      "construction_format": "Нетиповые форматы",
      "display_type": "Статика",
      "lighting": null,
      "size": "6x3",
      "material": null
    },
    {
      "gid": "9995",
      "address": "33-34 ул. Гоголя - ул. Крылова",
      "name": "А",
      "lon": 29.193488,
      "lat": 53.148149,
      "construction_format": "Билборды",
      "display_type": "Статика",
      "lighting": null,
      "size": null,
      "material": null
    },
    {
      "gid": "9995",
      "address": "33-34 ул. Гоголя - ул. Крылова",
      "name": "В",
      "lon": 29.193488,
      "lat": 53.148149,
      "construction_format": "Билборды",
      "display_type": "Статика",
      "lighting": null,
      "size": null,
      "material": null
    },
    {
      "gid": "7578",
      "address": "33. Биллборд м ул. Ратомская (в р-не дома №15)",
      "name": "А",
      "lon": 27.455539,
      "lat": 53.93970371,
      "construction_format": "Билборды",
      "display_type": "Статика",
      "lighting": null,
      "size": "6x3",
      "material": null
    },
    {
      "gid": "7578",
      "address": "33. Биллборд м ул. Ратомская (в р-не дома №15)",
      "name": "В",
      "lon": 27.455539,
      "lat": 53.93970371,
      "construction_format": "Билборды",
      "display_type": "Статика",
      "lighting": null,
      "size": "6x3",
      "material": null
    },
    {
      "gid": "7606",
      "address": "33 Ул. Селицкого - Ул. Шабаны",
      "name": "А",
      "lon": 27.69965373133828,
      "lat": 53.83537796335277,
      "construction_format": "Билборды",
      "display_type": "Статика",
      "lighting": null,
      "size": null,
      "material": null
    },
    {
      "gid": "7606",
      "address": "33 Ул. Селицкого - Ул. Шабаны",
      "name": "В",
      "lon": 27.69965373133828,
      "lat": 53.83537796335277,
      "construction_format": "Билборды",
      "display_type": "Статика",
      "lighting": null,
      "size": null,
      "material": null
    },
    {
      "gid": "7579",
      "address": "34. Биллборд м ул. Ратомская (через дорогу от дома №20  по ул. Камайской)",
      "name": "А",
      "lon": 27.45279991,
      "lat": 53.93831158,
      "construction_format": "Билборды",
      "display_type": "Статика",
      "lighting": null,
      "size": "6x3",
      "material": null
    },
    {
      "gid": "7579",
      "address": "34. Биллборд м ул. Ратомская (через дорогу от дома №20  по ул. Камайской)",
      "name": "В",
      "lon": 27.45279991,
      "lat": 53.93831158,
      "construction_format": "Билборды",
      "display_type": "Статика",
      "lighting": null,
      "size": "6x3",
      "material": null
    },
    {
      "gid": "7607",
      "address": "34 Ул. Селицкого - Ул. М.Тростенец",
      "name": "А",
      "lon": 27.705302726822296,
      "lat": 53.82603983027611,
      "construction_format": "Билборды",
      "display_type": "Статика",
      "lighting": null,
      "size": null,
      "material": null
    },
    {
      "gid": "8651",
      "address": "34 Ул. Селицкого - Ул. М.Тростенец",
      "name": "А",
      "lon": 27.705302726822296,
      "lat": 53.82603983027611,
      "construction_format": "Билборды",
      "display_type": "Статика",
      "lighting": null,
      "size": null,
      "material": null
    },
    {
      "gid": "7580",
      "address": "35. Биллборд м ул. Ратомская (85 м. от ул. Тимирязева),",
      "name": "А",
      "lon": 27.45174931,
      "lat": 53.93666243,
      "construction_format": "Билборды",
      "display_type": "Статика",
      "lighting": null,
      "size": "6x3",
      "material": null
    },